
[
  {
    "name": "Hartsfield-Jackson Atlanta International Airport",
    "city": "Atlanta",
    "IATA": "ATL",
    "ICAO": "KATL",
    "lat": 33.6367,
    "lon": -84.4281
  },
  {
    "name": "Dubai International Airport",
    "city": "Dubai",
    "IATA": "DXB",
    "ICAO": "OMDB",
    "lat": 25.2528,
    "lon": 55.3644
  },
  {
    "name": "Dallas/Fort Worth International Airport",
    "city": "Dallas-Fort Worth",
    "IATA": "DFW",
    "ICAO": "KDFW",
    "lat": 32.8968,
    "lon": -97.0380
  },
  {
    "name": "London Heathrow Airport",
    "city": "London",
    "IATA": "LHR",
    "ICAO": "EGLL",
    "lat": 51.4706,
    "lon": -0.4619
  },
  {
    "name": "Tokyo Haneda Airport",
    "city": "Tokyo",
    "IATA": "HND",
    "ICAO": "RJTT",
    "lat": 35.5523,
    "lon": 139.7798
  },
  {
    "name": "Denver International Airport",
    "city": "Denver",
    "IATA": "DEN",
    "ICAO": "KDEN",
    "lat": 39.8617,
    "lon": -104.6731
  },
  {
    "name": "Istanbul Airport",
    "city": "Istanbul",
    "IATA": "IST",
    "ICAO": "LTFM",
    "lat": 41.2753,
    "lon": 28.7519
  },
  {
    "name": "Los Angeles International Airport",
    "city": "Los Angeles",
    "IATA": "LAX",
    "ICAO": "KLAX",
    "lat": 33.9425,
    "lon": -118.4081
  },
  {
    "name": "Chicago O'Hare International Airport",
    "city": "Chicago",
    "IATA": "ORD",
    "ICAO": "KORD",
    "lat": 41.9786,
    "lon": -87.9048
  },
  {
    "name": "Indira Gandhi International Airport",
    "city": "Delhi",
    "IATA": "DEL",
    "ICAO": "VIDP",
    "lat": 28.5665,
    "lon": 77.1032
  },
  {
    "name": "Paris-Charles de Gaulle Airport",
    "city": "Paris",
    "IATA": "CDG",
    "ICAO": "LFPG",
    "lat": 49.0097,
    "lon": 2.5479
  },
  {
    "name": "Guangzhou Baiyun International Airport",
    "city": "Guangzhou",
    "IATA": "CAN",
    "ICAO": "ZGGG",
    "lat": 23.3924,
    "lon": 113.2988
  },
  {
    "name": "John F. Kennedy International Airport",
    "city": "New York",
    "IATA": "JFK",
    "ICAO": "KJFK",
    "lat": 40.6398,
    "lon": -73.7789
  },
  {
    "name": "Amsterdam Airport Schiphol",
    "city": "Amsterdam",
    "IATA": "AMS",
    "ICAO": "EHAM",
    "lat": 52.3086,
    "lon": 4.7639
  },
  {
    "name": "Shanghai Pudong International Airport",
    "city": "Shanghai",
    "IATA": "PVG",
    "ICAO": "ZSPD",
    "lat": 31.1434,
    "lon": 121.8053
  },
  {
    "name": "Frankfurt Airport",
    "city": "Frankfurt",
    "IATA": "FRA",
    "ICAO": "EDDF",
    "lat": 50.0333,
    "lon": 8.5706
  },
  {
    "name": "Singapore Changi Airport",
    "city": "Singapore",
    "IATA": "SIN",
    "ICAO": "WSSS",
    "lat": 1.3502,
    "lon": 103.9944
  },
  {
    "name": "Soekarno-Hatta International Airport",
    "city": "Jakarta",
    "IATA": "CGK",
    "ICAO": "WIII",
    "lat": -6.1256,
    "lon": 106.6558
  },
  {
    "name": "Incheon International Airport",
    "city": "Seoul",
    "IATA": "ICN",
    "ICAO": "RKSI",
    "lat": 37.4692,
    "lon": 126.4505
  },
  {
    "name": "Beijing Capital International Airport",
    "city": "Beijing",
    "IATA": "PEK",
    "ICAO": "ZBAA",
    "lat": 40.0801,
    "lon": 116.5845
  }
]
